stop_id,stop_code,stop_name,stop_desc,stop_lat,stop_lon,zone_id,stop_url,location_type,parent_station,stop_timezone,wheelchair_boarding,platform_code
14940 1,,広域公園前駅,,34.435448124630478788523,132.4003263449345128854730,14940 1,,0,,,,
14940 2,,広域公園前駅,,34.435514777170377061040,132.3999597057324331719136,14940 2,,0,,,,
14950 1,,中大塚,,34.438664480567467625606,132.4022260391059042767068,14950 1,,0,,,,
14950 2,,中大塚,,34.439481056705833327512,132.402042683441750027681,14950 2,,0,,,,
14960 1,,大塚駅,,34.442514102901865875689,132.4041757000527420222360,14960 1,,0,,,,
14960 2,,大塚駅,,34.442030824526391664128,132.4043590403708926081716,14960 2,,0,,,,
19370 1,,ジ アウトレット 広島,,34.41065075,132.3990443,19370 1,,0,,,,
19370 3,,ジアウトレット広島,,34.410384113875639396044,132.3988942846910064435038,19370 3,,0,,,,
19950 2,,井口一丁目,,34.377770794372997221638,132.3908131235924102041072,19950 2,,0,,,,
19960 0,,鈴が峰第三歩道橋,,34.38315364,132.3960124,19960 0,,0,,,,
19970 0,,鈴が峰第二歩道橋,,34.38120386,132.3962792,19970 0,,0,,,,
19980 0,,草津病院入口,,34.37823745,132.3929796,19980 0,,0,,,,
20320 1,,山田入口,,34.4051846,132.3946949,20320 1,,0,,,,
20320 2,,山田入口,,34.405367909535341401472,132.3946448687930381079182,20320 2,,0,,,,
20870 1,,鈴が峰住宅中,,34.379903910400560748627,132.3914296411741281223614,20870 1,,0,,,,
20870 2,,鈴が峰住宅中,,34.379870575107491976348,132.391096336843732126434,20870 2,,0,,,,
21250 1,,田方が丘団地,,34.391069506759766649386,132.3985452030597679033728,21250 1,,0,,,,
21250 2,,田方が丘団地,,34.392402680929166599067,132.3975785553196503029564,21250 2,,0,,,,
21350 1,,新井口駅,,34.37658761,132.3920464,21350 1,,0,,,,
21350 2,,新井口駅,,34.376587603833240327180,132.3917464340668990455642,21350 2,,0,,,,
21360 0,,鈴が峰小学校下,,34.37980399,132.395396,21360 0,,0,,,,
21370 1,,鈴が峰住宅東,,34.383736885647924880633,132.3944125507491492089912,21370 1,,0,,,,
21370 2,,鈴が峰住宅東,,34.383320265872255993782,132.3945458920652597846678,21370 2,,0,,,,
22030 1,,市立大学前,,34.438714664074632717666,132.4130418048405881628606,22030 1,,0,,,,
22030 2,,市立大学前,,34.440147847563343193671,132.4132417225841618817864,22030 2,,0,,,,
22030 3,,市立大学前,,34.437931418387384407628,132.4132584892390623858034,22030 3,,0,,,,
22540 0,,西区役所前,,34.39466976,132.434792,22540 0,,0,,,,
22540 1,,西区役所前,,34.39443644,132.4346087,22540 1,,0,,,,
22800 1,,鈴が峰住宅,,34.380687188105034992136,132.3930461374391891419354,22800 1,,0,,,,
22800 2,,鈴が峰住宅,,34.380853842344217372020,132.393379435631190995431,22800 2,,0,,,,
22810 2,,鈴が峰住宅西,,34.378603997831974987331,132.3884799462963574456558,22810 2,,0,,,,
24140 1,,沼田料金所前,,34.436481515838092145955,132.4100088267318819677576,24140 1,,0,,,,
24140 2,,沼田料金所前,,34.436398189009565026365,132.4098588427698433867358,24140 2,,0,,,,
24940 0,,大宮,,34.4194675,132.4575223,24940 0,,0,,,,
24960 7,,立町,,34.3946735,132.4607077,24960 7,,0,,,,7
25120 1,,田方東陽台前,,34.39796875,132.3973283,25120 1,,0,,,,
25120 2,,田方東陽台前,,34.398235386021468890416,132.397328307656389425858,25120 2,,0,,,,
25121 1,,草津新町一丁目,,34.374221427929730395635,132.4053454139136698662374,25121 1,,0,,,,
25121 2,,草津新町一丁目,,34.373771486567426261137,132.4059453847629718900350,25121 2,,0,,,,
25150 0,,マツダスタジアム前,,34.39028776,132.4846048,25150 0,,0,,,,
25150 1,,マツダスタジアム前,,34.38997113,132.4849547,25150 1,,0,,,,
4400 4,,田方,,34.387586586702703416984,132.4008618376845072667632,4400 4,,0,,,,
46012 0,,高陽中学校前,,34.48086228,132.5348298,46012 0,,0,,,,
46012 1,,高陽中学校前,,34.48074561,132.5338132,46012 1,,0,,,,
46013 0,,中深川,,34.4808699,132.5301615,46013 0,,0,,,,
46013 1,,中深川,,34.4808677,132.5304767,46013 1,,0,,,,
46014 0,,諸木峠,,34.47699587,132.525514,46014 0,,0,,,,
46014 1,,諸木峠,,34.47684589,132.5256807,46014 1,,0,,,,
46037 0,,白島北町,,34.41061854,132.4628223,46037 0,,0,,,,
46044 0,,大須賀町,,34.40045309,132.4703888,46044 0,,0,,,,
46044 1,,大須賀町,,34.40111968,132.4697388,46044 1,,0,,,,
46048 1,,地区センター,,34.48182867,132.5244972,46048 1,,0,,,,
46049 1,,高陽郵便局前,,34.4823946,132.5220269,46049 1,,0,,,,
46057 1,,寺迫公園,,34.48064538,132.520081,46057 1,,0,,,,
46058 0,,柳ケ迫,,34.4793789,132.5228308,46058 0,,0,,,,
46058 1,,柳ケ迫,,34.47956221,132.5225475,46058 1,,0,,,,
46059 0,,北山橋,,34.47706249,132.5231309,46059 0,,0,,,,
46059 1,,北山橋,,34.47726246,132.5229476,46059 1,,0,,,,
47014 0,,広島港桟橋,,34.35289124,132.4550256,47014 0,,0,,,,
47014 1,,広島港桟橋,,34.35284125,132.4552923,47014 1,,0,,,,
47014 2,,広島港桟橋,,34.35284125,132.4552923,47014 2,,0,,,,
47014 3,,広島港桟橋,,34.35284125,132.4552923,47014 3,,0,,,,
4850 3,,石内原田,,34.423149393036872162633,132.3976271354930032412284,4850 3,,0,,,,
4850 4,,石内原田,,34.422999404141828235963,132.3973438320525977348506,4850 4,,0,,,,
4860 1,,半坂,,34.427682255733842614701,132.3984601909019206986206,4860 1,,0,,,,
4860 2,,半坂,,34.428232197022933152872,132.398443500314050858111,4860 2,,0,,,,
49013 0,,隠地,,34.47802941,132.5436625,49013 0,,0,,,,
49013 1,,隠地,,34.47769612,132.5441458,49013 1,,0,,,,
49014 0,,安芸中深川,,34.47694622,132.5454624,49014 0,,0,,,,
49014 1,,安芸中深川,,34.47707953,132.5451291,49014 1,,0,,,,
49015 0,,安芸庄原,,34.47459659,132.551912,49015 0,,0,,,,
49015 1,,安芸庄原,,34.47496319,132.5507954,49015 1,,0,,,,
49016 0,,上庄原,,34.47399675,132.5574449,49016 0,,0,,,,
49016 1,,上庄原,,34.47386342,132.5573282,49016 1,,0,,,,
50020 0,,紙屋町,,34.39557003,132.4558236,50020 0,,0,,,,33
50020 1,,紙屋町,,34.39720323,132.45819,50020 1,,0,,,,25
50020 2,,紙屋町,,34.39705324,132.4581066,50020 2,,0,,,,25
50020 3,,紙屋町,,34.39597002,132.4581234,50020 3,,0,,,,23
50020 4,,紙屋町,,34.39485349,132.45864,50020 4,,0,,,,30
50020 5,,紙屋町,,34.395144,132.4588445,50020 5,,0,,,,22
50020 6,,紙屋町,,34.3958245,132.4559397,50020 6,,0,,,,26
50020 7,,紙屋町,,34.39462019,132.45959,50020 7,,0,,,,29
50030 1,,八丁堀,,34.39408695,132.4617232,50030 1,,0,,,,14
50030 11,,八丁堀,,34.39377036,132.4640896,50030 11,,0,,,,2-3
50030 2,,八丁堀,,34.39363705,132.4646229,50030 2,,0,,,,1
50030 3,,八丁堀,,34.39322044,132.4651396,50030 3,,0,,,,0
50030 4,,八丁堀,,34.39407031,132.463023,50030 4,,0,,,,5
50030 5,,八丁堀,,34.39467026,132.463673,50030 5,,0,,,,4
50030 7,,八丁堀,,34.39382033,132.4627731,50030 7,,0,,,,13
50030 8,,八丁堀,,34.39272046,132.4630898,50030 8,,0,,,,12
50030 9,,八丁堀,,34.39313709,132.4634397,50030 9,,0,,,,11
50040 0,,銀山町,,34.39335379,132.4668728,50040 0,,0,,,,
50040 1,,銀山町,,34.39308715,132.4665561,50040 1,,0,,,,
50050 0,,稲荷町,,34.39282058,132.4708558,50050 0,,0,,,,1
50050 1,,稲荷町,,34.39253728,132.4708558,50050 1,,0,,,,2
50050 2,,稲荷町,,34.39205401,132.4716891,50050 2,,0,,,,3
50050 3,,稲荷町,,34.3918025,132.471301,50050 3,,0,,,,4
50060 0,,広島駅,,34.39720348,132.4729221,50060 0,,0,,,,21
50060 1,,広島駅,,34.397286838204496710282,132.474688593426404218654,50060 1,,0,,,,1
50060 10,,広島駅,,34.39728681,132.4732887,50060 10,,0,,,,23
50060 11,,広島駅,,34.39665356,132.4739387,50060 11,,0,,,,20
50060 12,,広島駅,,34.397536803740883227944,132.4742219539182917940856,50060 12,,0,,,,5
50060 13,,広島駅,,34.397303497939773700539,132.4743719513991105941772,50060 13,,0,,,,8
50060 14,,広島駅,,34.39702019,132.4740887,50060 14,,0,,,,4
50060 3,,広島駅,,34.397386823895099318225,132.4744719394273063168970,50060 3,,0,,,,3
50060 4,,広島駅,,34.39593699,132.4752719,50060 4,,0,,,,23
50060 5,,広島駅,,34.39607028,132.4735221,50060 5,,0,,,,
50060 6,,広島駅,,34.397453481569418344986,132.4743386142244742783048,50060 6,,0,,,,4
50060 9,,広島駅,,34.397170182777439350197,132.4745886069317949225718,50060 9,,0,,,,6
50060 999,,広島駅,,34.396086,132.4735322,50060 999,,0,,,,
50070 0,,東区役所前,,34.39593714,132.4835379,50070 0,,0,,,,
50080 0,,広電曙営業所前,,34.39543724,132.4864877,50080 0,,0,,,,
50080 1,,広電曙営業所前,,34.39552058,132.4870876,50080 1,,0,,,,
50090 0,,曙町,,34.39485402,132.4895208,50090 0,,0,,,,
50090 1,,曙町,,34.39488737,132.4903707,50090 1,,0,,,,
50100 0,,矢賀入口,,34.39440411,132.4917706,50100 0,,0,,,,
50100 1,,矢賀入口,,34.39467075,132.491554,50100 1,,0,,,,
50101 0,,矢賀新町二丁目,,34.3938876,132.4961544,50101 0,,0,,,,
50101 1,,矢賀新町二丁目,,34.3940292,132.4960281,50101 1,,0,,,,
50102 0,,大須三丁目,,34.39747061,132.5009364,50102 0,,0,,,,
50102 1,,大須三丁目,,34.39732062,132.5003031,50102 1,,0,,,,
50103 0,,本町五丁目,,34.39860387,132.5037695,50103 0,,0,,,,
50103 1,,本町五丁目,,34.39860387,132.5033695,50103 1,,0,,,,
50104 0,,本町四丁目,,34.39980379,132.5066025,50104 0,,0,,,,
50104 1,,本町四丁目,,34.39977046,132.5061692,50104 1,,0,,,,
50105 0,,矢賀駅入口,,34.3970259,132.4983049,50105 0,,0,,,,
50105 1,,矢賀駅入口,,34.3969874,132.4980518,50105 1,,0,,,,
50260 0,,城ヶ丘入口,,34.4023434,132.5069215,50260 0,,0,,,,
50260 1,,城ヶ丘入口,,34.4022821,132.5068412,50260 1,,0,,,,
50270 0,,府中変電所,,34.40360337,132.5056357,50270 0,,0,,,,
50270 1,,府中変電所,,34.40333674,132.5059691,50270 1,,0,,,,
50280 0,,愛宕町,,34.39683702,132.4822047,50280 0,,0,,,,
50280 1,,愛宕町,,34.39707032,132.4817047,50280 1,,0,,,,
50320 0,,本通り,,34.39298698,132.4566736,50320 0,,0,,,,32
50320 1,,本通り,,34.39403688,132.4574068,50320 1,,0,,,,31
50330 0,,袋町,,34.39095386,132.4564071,50330 0,,0,,,,
50340 0,,中電前,,34.38902072,132.4553572,50340 0,,0,,,,
50340 1,,中電前,,34.3879875,132.4553573,50340 1,,0,,,,
50350 0,,市役所前,,34.38558773,132.4541408,50350 0,,0,,,,
50350 1,,市役所前,,34.38645432,132.4548241,50350 1,,0,,,,
50480 2,,観音三菱前,,34.371371998126543107256,132.4205442832073446380734,50480 2,,0,,,,
50540 0,,的場町,,34.39240404,132.4753388,50540 0,,0,,,,
50540 1,,的場町,,34.39258736,132.4756221,50540 1,,0,,,,
50830 0,,鶴羽根神社前,,34.40253622,132.4712553,50830 0,,0,,,,
50830 1,,鶴羽根神社前,,34.40306948,132.4706053,50830 1,,0,,,,
50840 0,,二葉の里,,34.4010864,132.4727386,50840 0,,0,,,,
50840 1,,二葉の里,,34.40145303,132.4727386,50840 1,,0,,,,
50850 0,,東照宮入口,,34.40040316,132.4738219,50850 0,,0,,,,
50850 1,,東照宮入口,,34.40008655,132.4750551,50850 1,,0,,,,
50860 0,,広島駅新幹線口,,34.39828679,132.4778716,50860 0,,0,,,,27
50860 1,,広島駅新幹線口,,34.39868674,132.4777549,50860 1,,0,,,,28
50860 2,,広島駅新幹線口,,34.39863672,132.4759551,50860 2,,0,,,,1
50860 4,,広島駅新幹線口,,34.39873672,132.4767217,50860 4,,0,,,,
50870 0,,若草町,,34.39738691,132.4795715,50870 0,,0,,,,
50880 0,,段原一丁目,,34.3901543,132.4765721,50880 0,,0,,,,
50880 1,,段原一丁目,,34.39095421,132.4765054,50880 1,,0,,,,
50900 0,,鶴見橋,,34.3866665,132.4671261,50900 0,,0,,,,
50900 1,,鶴見橋,,34.3869147,132.4670613,50900 1,,0,,,,
50910 0,,比治山橋,,34.38228833,132.4684398,50910 0,,0,,,,
50910 1,,比治山橋,,34.38210502,132.4686565,50910 1,,0,,,,
50920 0,,南区役所前,,34.38103848,132.4689731,50920 0,,0,,,,
50920 1,,南区役所前,,34.38000528,132.4703231,50920 1,,0,,,,
50930 0,,出汐町,,34.37893877,132.4727396,50930 0,,0,,,,
50930 1,,出汐町,,34.37922207,132.4728896,50930 1,,0,,,,
50940 0,,出汐一丁目,,34.37968874,132.475906,50940 0,,0,,,,
50940 1,,出汐一丁目,,34.3798054,132.4761226,50940 1,,0,,,,
50950 0,,大学病院前,,34.37995541,132.4777225,50950 0,,0,,,,1
50950 1,,大学病院前,,34.37995541,132.4777558,50950 1,,0,,,,3
50950 2,,大学病院前,,34.37995541,132.4777558,50950 2,,0,,,,4
50950 3,,大学病院前,,34.38002208,132.4779891,50950 3,,0,,,,1
51010 0,,広島バスセンター,,34.39636995,132.4565568,51010 0,,0,,,,
51010 1,,広島バスセンター,,34.39615331,132.4564402,51010 1,,0,,,,10
51055 0,,アルパーク,,34.3740614,132.3939931,51055 0,,0,,,,2
51055 1,,アルパーク,,34.3741193,132.3941291,51055 1,,0,,,,3
51055 2,,アルパーク,,34.3741525,132.3943492,51055 2,,0,,,,4
51055 3,,アルパーク,,34.3739407,132.3945839,51055 3,,0,,,,5
51055 4,,アルパーク,,34.3737122,132.3943199,51055 4,,0,,,,6
51055 5,,アルパーク,,34.3727591,132.3938034,51055 5,,0,,,,
51055 6,,アルパーク,,34.3734134,132.3937559,51055 6,,0,,,,
51055 7,,アルパーク,,34.373989,132.393833,51055 7,,0,,,,
51160 1,,皿山公園下,,34.369889038517707473913,132.4328766605280675358160,51160 1,,0,,,,
51190 0,,舟入南,,34.37497193,132.4388593,51190 0,,0,,,,
51190 1,,舟入南,,34.37472196,132.4387926,51190 1,,0,,,,
51240 3,,横川駅前,,34.40980174,132.4502567,51240 3,,0,,,,2
51240 999,,横川駅前,,34.4097373,132.4496765,51240 999,,0,,,,
51320 0,,十日市,,34.39731971,132.4484241,51320 0,,0,,,,1
51320 1,,十日市,,34.3970364079361,132.448490780408,51320 1,,0,,,,3
51320 2,,十日市,,34.39836958,132.4475408,51320 2,,0,,,,4
51320 3,,十日市,,34.39823626,132.4471575,51320 3,,0,,,,5
51330 0,,本川町,,34.3970531,132.449974,51330 0,,0,,,,
51330 1,,本川町,,34.39670315,132.4505906,51330 1,,0,,,,
51340 0,,原爆ドーム前,,34.39623659,132.4541237,51340 0,,0,,,,28
51340 1,,原爆ドーム前,,34.39593662,132.4541404,51340 1,,0,,,,34
51350 0,,国泰寺町二丁目,,34.38413794,132.456974,51350 0,,0,,,,
51401 0,,向洋本町,,34.36947368,132.5052207,51401 0,,0,,,,3
51401 1,,向洋本町,,34.36947368,132.5050207,51401 1,,0,,,,4
51403 0,,向洋新町一丁目,,34.3658939,132.5108203,51403 0,,0,,,,
51403 1,,向洋新町一丁目,,34.36589083,132.5108204,51403 1,,0,,,,
51404 0,,向洋新町二丁目,,34.3640171,132.5086958,51404 0,,0,,,,
51404 1,,向洋新町二丁目,,34.36400766,132.5086873,51404 1,,0,,,,
51410 0,,天満町,,34.39620302,132.4403582,51410 0,,0,,,,3
51410 1,,天満町,,34.39591973,132.4412581,51410 1,,0,,,,4
51480 0,,女学院前,,34.39773663,132.465506,51480 0,,0,,,,1
51480 1,,女学院前,,34.3972459,132.4667021,51480 1,,0,,,,2
51480 2,,女学院前,,34.39841988,132.4650393,51480 2,,0,,,,4
51540 0,,己斐「宮島街道」,,34.39646944,132.4276592,51540 0,,0,,,,5
51540 1,,己斐「宮島街道」,,34.39655277,132.4280425,51540 1,,0,,,,4
51540 2,,己斐「西広島駅」,,34.3978693,132.4284591,51540 2,,0,,,,1
51550 0,,己斐本町二丁目,ブックオフ前,34.39416965,132.4255928,51550 0,,0,,,,1
51550 1,,己斐本町二丁目,太陽生命前,34.39420298,132.4258428,51550 1,,0,,,,2
51580 0,,竹屋町,,34.384338,132.4620569,51580 0,,0,,,,1
51590 0,,宝町,,34.38413803,132.4624402,51590 0,,0,,,,
51590 1,,宝町,,34.38413805,132.4637234,51590 1,,0,,,,
51600 0,,昭和町,,34.38387144,132.4649067,51600 0,,0,,,,
51600 1,,昭和町,,34.38387146,132.4663899,51600 1,,0,,,,
51610 0,,出汐三丁目,,34.37642243,132.4762394,51610 0,,0,,,,3
51610 1,,出汐三丁目,,34.37660575,132.4766727,51610 1,,0,,,,1
51610 2,,出汐三丁目,,34.3764737,132.4766134,51610 2,,0,,,,2
51620 1,,旭町,,34.37348944,132.4781227,51620 1,,0,,,,
51620 2,,旭町,,34.373856066729013748711,132.4778560753117404218988,51620 2,,0,,,,
51621 0,,西旭町,,34.37290613,132.4754896,51621 0,,0,,,,
51792 0,,新白島駅,,34.40771881,132.4608226,51792 0,,0,,,,
51940 0,,戸坂中学校,,34.42353445,132.4984021,51940 0,,0,,,,
51940 1,,戸坂中学校,,34.4236511,132.4984687,51940 1,,0,,,,
51980 0,,新天地,,34.3905685,132.4624169,51980 0,,0,,,,
51980 1,,新天地,,34.3903116,132.4625809,51980 1,,0,,,,
51990 0,,富士見町,,34.3871892,132.4613947,51990 0,,0,,,,
51990 1,,富士見町,,34.3875495,132.4617404,51990 1,,0,,,,
51991 0,,田中町,,34.3876704,132.4633583,51991 0,,0,,,,
51991 1,,田中町,,34.3878276,132.4636396,51991 1,,0,,,,
52000 0,,保健所前,,34.3858249,132.4609598,52000 0,,0,,,,
52000 1,,保健所前,,34.3859385,132.4612761,52000 1,,0,,,,
52030 1,,御幸橋,,34.37597218,132.4589909,52030 1,,0,,,,5
52030 2,,御幸橋,,34.37597218,132.4589909,52030 2,,0,,,,4
52030 3,,御幸橋,,34.3761795,132.4591972,52030 3,,0,,,,3
52030 4,,御幸橋,,34.3759714,132.4589853,52030 4,,0,,,,
52040 0,,皆実町六丁目,,34.3740472,132.4638894,52040 0,,0,,,,
52040 1,,皆実町六丁目,,34.3744376,132.4635111,52040 1,,0,,,,
52050 0,,広大附属学校前,,34.3712369,132.4645327,52050 0,,0,,,,
52050 1,,広大附属学校前,,34.3719457,132.4646305,52050 1,,0,,,,
52060 0,,西翠町,,34.3698258,132.4646618,52060 0,,0,,,,
52060 1,,西翠町,,34.3698368,132.4648316,52060 1,,0,,,,
52070 0,,県病院前,,34.3676986,132.4663399,52070 0,,0,,,,
52070 1,,県病院前,,34.3676555,132.4674865,52070 1,,0,,,,
52080 0,,県立広島大学前,,34.36883981,132.4703403,52080 0,,0,,,,3
52080 1,,県立広島大学前,,34.3663147,132.4701541,52080 1,,0,,,,
52080 2,,県立広島大学前,,34.36620675,132.4698571,52080 2,,0,,,,
52080 3,,県立広島大学前,,34.3673286,132.4692612,52080 3,,0,,,,2
52130 0,,平塚町,,34.3894209,132.4683895,52130 0,,0,,,,
52130 1,,平塚町,,34.38865431,132.4676396,52130 1,,0,,,,
52140 0,,並木通り入口,,34.38883748,132.4597736,52140 0,,0,,,,
52140 1,,並木通り入口,,34.38833755,132.4608902,52140 1,,0,,,,
52370 0,,大学病院入口,,34.38025534,132.475456,52370 0,,0,,,,
52370 1,,大学病院入口,,34.38027201,132.4759559,52370 1,,0,,,,
52380 0,,段原南,,34.38325505,132.477239,52380 0,,0,,,,
52380 1,,段原南,,34.38387166,132.4775556,52380 1,,0,,,,
52390 0,,段原中央,,34.38605,132.47637,52390 0,,0,,,,2
52390 1,,段原中央,,34.38618,132.47608,52390 1,,0,,,,1
52390 2,,段原中央,,34.38759,132.47728,52390 2,,0,,,,3
52390 3,,段原中央,,34.38672,132.47702,52390 3,,0,,,,4
52590 1,,江波本町,,34.368405893182242747868,132.4345599222137318043376,52590 1,,0,,,,
52960 0,,白神社前,,34.38973733,132.4564905,52960 0,,0,,,,
52960 1,,白神社前,,34.38910409,132.4580737,52960 1,,0,,,,
55170 0,,荒神町,,34.393304,132.4786551,55170 0,,0,,,,
55170 1,,荒神町,,34.39308736,132.4785885,55170 1,,0,,,,
55180 0,,西蟹屋,,34.39182085,132.4800551,55180 0,,0,,,,
55190 0,,広島バス大州車庫前,,34.38892131,132.4887045,55190 0,,0,,,,
55190 1,,広島バス大州車庫前,,34.38893797,132.4881212,55190 1,,0,,,,
55200 0,,大州四丁目,,34.38753821,132.4933208,55200 0,,0,,,,
55200 1,,大州四丁目,,34.38708828,132.4945207,55200 1,,0,,,,
55210 0,,新大州橋,,34.38497195,132.501287,55210 0,,0,,,,
55210 1,,新大州橋,,34.38477197,132.501187,55210 1,,0,,,,
55220 0,,向洋駅前,,34.37687288,132.5045204,55220 0,,0,,,,
55220 1,,向洋駅前,,34.37817273,132.5040704,55220 1,,0,,,,
56410 0,,広瀬町,,34.40180257,132.4485572,56410 0,,0,,,,
56410 1,,広瀬町,,34.40013606,132.447774,56410 1,,0,,,,
56530 0,,合同庁舎前,,34.39860314,132.4620396,56530 0,,0,,,,
56560 0,,三篠町一丁目,,34.41245152,132.4536896,56560 0,,0,,,,
56560 1,,三篠町一丁目,,34.41163493,132.4531897,56560 1,,0,,,,
56570 0,,三篠町三丁目,,34.41506792,132.4544561,56570 0,,0,,,,
56580 0,,大芝町,,34.4219006,132.4593387,56580 0,,0,,,,
70010 0,,青崎,,34.37277333,132.5053372,70010 0,,0,,,,
70010 1,,青崎,,34.3733566,132.5051038,70010 1,,0,,,,
70020 0,,青崎小学校前,,34.37095686,132.5055706,70020 0,,0,,,,
70020 1,,青崎小学校前,,34.3712235,132.5055039,70020 1,,0,,,,
70030 0,,安芸高校入口,,34.42270146,132.5129842,70030 0,,0,,,,
70030 1,,安芸高校入口,,34.4233014,132.5133842,70030 1,,0,,,,
70150 0,,鮎信団地,,34.42938421,132.5209833,70150 0,,0,,,,
70150 1,,鮎信団地,,34.42940088,132.5208,70150 1,,0,,,,
70180 0,,憩いの森口,,34.48037907,132.5384795,70180 0,,0,,,,
70180 1,,憩いの森口,,34.48001245,132.5393627,70180 1,,0,,,,
70280 0,,井口車庫,,34.36487203,132.3825644,70280 0,,0,,,,
70280 1,,井口車庫,,34.36442208,132.3827477,70280 1,,0,,,,
70347 0,,宇品西三丁目,,34.36084046,132.4586583,70347 0,,0,,,,
70347 1,,宇品西三丁目,,34.36089046,132.4588749,70347 1,,0,,,,
70350 0,,宇品西四丁目,,34.35814074,132.4582584,70350 0,,0,,,,
70350 1,,宇品西四丁目,,34.35890733,132.4586917,70350 1,,0,,,,
70355 0,,宇品西六丁目,,34.35622428,132.4584752,70355 0,,0,,,,
70360 0,,宇品町,,34.35492443,132.4589252,70360 0,,0,,,,
70360 1,,宇品町,,34.35442448,132.4588585,70360 1,,0,,,,
70370 0,,馬木料金所前,,34.43923339,132.5341484,70370 0,,0,,,,
70380 0,,観音新町二丁目,,34.37935457,132.4257435,70380 0,,0,,,,
70380 1,,観音新町二丁目,,34.37962118,132.4240936,70380 1,,0,,,,
70430 0,,猿候橋通り,,34.39512045,132.4770718,70430 0,,0,,,,
70430 1,,猿候橋通り,,34.39538707,132.4763385,70430 1,,0,,,,
70520 0,,大内越峠,,34.40446968,132.4907203,70520 0,,0,,,,
70520 1,,大内越峠,,34.40441968,132.4903536,70520 1,,0,,,,
70540 0,,大内越峠下,,34.40102001,132.4880706,70540 0,,0,,,,
70540 1,,大内越峠下,,34.40138664,132.4882539,70540 1,,0,,,,
70560 0,,大原神社前,,34.36409095,132.5068208,70560 0,,0,,,,
70560 1,,大原神社前,,34.36424093,132.5065208,70560 1,,0,,,,
70570 0,,向洋大原,,34.36617402,132.5044876,70570 0,,0,,,,
70570 1,,向洋大原,,34.36625734,132.5044709,70570 1,,0,,,,
70580 0,,大平,,34.45396533,132.5445468,70580 0,,0,,,,
70580 1,,大平,,34.45404865,132.5443469,70580 1,,0,,,,
70590 0,,小河原,,34.4658302,132.5629414,70590 0,,0,,,,
70590 1,,小河原,,34.4656873,132.5629496,70590 1,,0,,,,
70600 0,,小河原車庫,,34.46331464,132.5622116,70600 0,,0,,,,
70610 0,,小河原車庫,,34.4632327,132.5623151,70610 0,,0,,,,
70610 1,,小河原車庫,,34.46308133,132.562045,70610 1,,0,,,,
70610 2,,小河原車庫,,34.46308133,132.562045,70610 2,,0,,,,
70670 0,,海岸二丁目,,34.35584105,132.4617582,70670 0,,0,,,,
70670 1,,海岸二丁目,,34.35637432,132.4618915,70670 1,,0,,,,
70740 0,,上氏の原,,34.45918163,132.5554957,70740 0,,0,,,,
70740 1,,上氏の原,,34.45928163,132.5562123,70740 1,,0,,,,
70780 0,,上温品,,34.42378471,132.5150174,70780 0,,0,,,,
70800 0,,上温品北,,34.42496794,132.5161839,70800 0,,0,,,,
70800 1,,上温品北,,34.42505126,132.5160505,70800 1,,0,,,,
70810 0,,上温品小学校入口,,34.42676778,132.518217,70810 0,,0,,,,
70810 1,,上温品小学校入口,,34.42698442,132.5181503,70810 1,,0,,,,
70920 0,,河原町,,34.39205358,132.4469411,70920 0,,0,,,,
70920 1,,河原町,,34.39218687,132.4450913,70920 1,,0,,,,
70930 0,,観音新町一丁目,,34.37800479,132.4302098,70930 0,,0,,,,
70930 1,,観音新町一丁目,,34.37848803,132.42786,70930 1,,0,,,,
70940 0,,広島バス本社前,,34.36513976,132.4450092,70940 0,,0,,,,
70940 1,,広島バス本社前,,34.36413986,132.4448593,70940 1,,0,,,,
70970 0,,記念碑前,,34.44834912,132.5360811,70970 0,,0,,,,
70970 1,,記念碑前,,34.44918238,132.536931,70970 1,,0,,,,
71010 0,,草津東町,,34.38103742,132.4084448,71010 0,,0,,,,
71010 1,,草津東町,,34.38045413,132.4073116,71010 1,,0,,,,
71040 0,,草津病院前,,34.37745428,132.3975126,71040 0,,0,,,,
71040 1,,草津病院前,,34.37710429,132.3961794,71040 1,,0,,,,
71060 0,,草津町,,34.37927087,132.404062,71060 0,,0,,,,
71060 1,,草津町,,34.3788209,132.4032287,71060 1,,0,,,,
71080 0,,草津南町,,34.37792095,132.4007956,71080 0,,0,,,,
71080 1,,草津南町,,34.37773763,132.4003957,71080 1,,0,,,,
71100 0,,楠木町,,34.4087507,132.4553567,71100 0,,0,,,,
71100 1,,楠木町,,34.4089799,132.455414,71100 1,,0,,,,
71190 0,,己斐橋,,34.39923585,132.4302422,71190 0,,0,,,,
71210 0,,己斐本町三丁目,,34.39245314,132.424193,71210 0,,0,,,,
71210 1,,己斐本町三丁目,,34.39205318,132.4240764,71210 1,,0,,,,
71220 0,,庚午北二丁目,,34.39046998,132.4218766,71220 0,,0,,,,
71220 1,,庚午北二丁目,,34.38973671,132.42121,71220 1,,0,,,,
71230 0,,庚午北四丁目,,34.38833683,132.4191936,71230 0,,0,,,,
71230 1,,庚午北四丁目,,34.38762023,132.4187104,71230 1,,0,,,,
71240 0,,庚午住宅入口,,34.38207069,132.4114445,71240 0,,0,,,,
71240 1,,庚午住宅入口,,34.38140407,132.4099947,71240 1,,0,,,,
71260 0,,庚午住宅,,34.37808776,132.4100615,71260 0,,0,,,,
71270 0,,庚午中一丁目,,34.38598704,132.4168939,71270 0,,0,,,,
71270 1,,庚午中一丁目,,34.38513712,132.4163273,71270 1,,0,,,,
71280 0,,庚午中三丁目,,34.38397055,132.4148942,71280 0,,0,,,,
71280 1,,庚午中三丁目,,34.3834706,132.4146609,71280 1,,0,,,,
71290 0,,庚午中四丁目,,34.38257072,132.4159108,71290 0,,0,,,,
71290 1,,庚午中四丁目,,34.38252072,132.4156108,71290 1,,0,,,,
71320 0,,加古町,,34.38875398,132.4493911,71320 0,,0,,,,
71320 1,,加古町,,34.38873732,132.4496244,71320 1,,0,,,,
71350 0,,光南町,,34.36752285,132.445959,71350 0,,0,,,,
71350 1,,光南町,,34.36728955,132.4460923,71350 1,,0,,,,
71370 0,,鹿籠,,34.38040581,132.5031703,71370 0,,0,,,,
71370 1,,鹿籠,,34.38000585,132.5032537,71370 1,,0,,,,
71400 0,,西善寺前,,34.45034895,132.5387975,71400 0,,0,,,,
71400 1,,西善寺前,,34.4505156,132.5386308,71400 1,,0,,,,
71410 0,,堺町,,34.39561985,132.4463244,71410 0,,0,,,,
71410 1,,堺町,,34.39498657,132.4452411,71410 1,,0,,,,
71420 0,,五月ヶ丘,,34.45703178,132.5510795,71420 0,,0,,,,
71420 1,,五月ヶ丘,,34.45748174,132.5516628,71420 1,,0,,,,
71430 0,,サンプラザ前,,34.3705326,132.3950677,71430 0,,0,,,,
71430 1,,サンプラザ前,,34.3713684,132.394996,71430 1,,0,,,,
71440 0,,三本松,,34.39750368,132.485821,71440 0,,0,,,,
71440 1,,三本松,,34.39937015,132.4864375,71440 1,,0,,,,
71460 0,,シーサイド病院入口,,34.35095821,132.4603086,71460 0,,0,,,,
71460 1,,シーサイド病院入口,,34.35144148,132.4598419,71460 1,,0,,,,
71480 0,,地蔵堂前,,34.41660092,132.4449568,71480 0,,0,,,,
71480 1,,地蔵堂前,,34.4165176,132.4450235,71480 1,,0,,,,
71510 0,,市民病院前,,34.39800315,132.4588399,71510 0,,0,,,,
71540 0,,下氏の原,,34.46113151,132.5604952,71540 0,,0,,,,
71540 1,,下氏の原,,34.46103151,132.5601619,71540 1,,0,,,,
71560 0,,下条,,34.4310674,132.522833,71560 0,,0,,,,
71560 1,,下条,,34.43195063,132.5225497,71560 1,,0,,,,
71580 0,,下温品,,34.41278578,132.5091683,71580 0,,0,,,,
71580 1,,下温品,,34.41231915,132.5079518,71580 1,,0,,,,
71590 0,,下温品,,34.41255249,132.509835,71590 0,,0,,,,
71600 0,,下温品,,34.4142546,132.5084757,71600 0,,0,,,,
71620 0,,修道学園入口,,34.37427233,132.4570245,71620 0,,0,,,,
71620 1,,修道学園入口,,34.37362236,132.4552413,71620 1,,0,,,,
71630 0,,縮景園入口,,34.39845325,132.4671725,71630 0,,0,,,,
71650 0,,商工センター一丁目,,34.37108831,132.3982795,71650 0,,0,,,,
71650 1,,商工センター一丁目,,34.37073835,132.3984795,71650 1,,0,,,,
71670 0,,商工センター二丁目,,34.3729381,132.3980627,71670 0,,0,,,,
71690 0,,商工センター三丁目,,34.36910509,132.39303,71690 0,,0,,,,
71690 1,,商工センター三丁目,,34.36883847,132.3936966,71690 1,,0,,,,
71710 0,,商工センター六丁目,,34.36748853,132.3892471,71710 0,,0,,,,
71710 1,,商工センター六丁目,,34.36735522,132.389797,71710 1,,0,,,,
71720 0,,商工センター七丁目,,34.3659053,132.3851475,71720 0,,0,,,,
71720 1,,商工センター七丁目,,34.36558867,132.3855975,71720 1,,0,,,,
71740 0,,商工センター入口,,34.37592103,132.393013,71740 0,,0,,,,
71740 1,,商工センター入口,,34.37472116,132.3930464,71740 1,,0,,,,
71760 0,,広島県情報プラザ前,,34.37573878,132.4536747,71760 0,,0,,,,
71760 1,,広島県情報プラザ前,,34.3770053,132.4534413,71760 1,,0,,,,
71960 0,,住田橋,,34.47019722,132.5615614,71960 0,,0,,,,
71960 1,,住田橋,,34.47053052,132.5613447,71960 1,,0,,,,
71970 0,,住田橋北,,34.47363017,132.5605946,71970 0,,0,,,,
71970 1,,住田橋北,,34.47388014,132.5603779,71970 1,,0,,,,
71980 0,,住吉町,,34.38305457,132.4485581,71980 0,,0,,,,
71980 1,,住吉町,,34.38405447,132.448758,71980 1,,0,,,,
71990 0,,誓願寺前,,34.41691753,132.4434903,71990 0,,0,,,,
71990 1,,誓願寺前,,34.41723415,132.4426903,71990 1,,0,,,,
72020 0,,千田廟公園前,,34.37042284,132.4631075,72020 0,,0,,,,
72020 1,,千田廟公園前,,34.37027286,132.4632075,72020 1,,0,,,,
72030 0,,惣の谷,,34.43391711,132.5238495,72030 0,,0,,,,
72030 1,,惣の谷,,34.43403376,132.5236995,72030 1,,0,,,,
72040 0,,第一病院前,,34.42315109,132.4946191,72040 0,,0,,,,
72040 1,,第一病院前,,34.42275113,132.4945524,72040 1,,0,,,,
72080 0,,鷹の橋,,34.38420454,132.4540409,72080 0,,0,,,,
72090 0,,鷹野橋商店街,,34.38292134,132.453391,72090 0,,0,,,,
72090 1,,鷹野橋商店街,,34.38302133,132.4536577,72090 1,,0,,,,
72120 0,,宝町北,,34.38650445,132.4629901,72120 0,,0,,,,
72120 1,,宝町北,,34.38627115,132.4632401,72120 1,,0,,,,
72150 0,,竹屋町西,,34.3847584,132.4597126,72150 0,,0,,,,
72150 1,,竹屋町西,,34.3840296,132.4590531,72150 1,,0,,,,
72280 0,,鶴江橋,,34.40373666,132.5040692,72280 0,,0,,,,
72325 0,,出汐二丁目,,34.37810553,132.4729563,72325 0,,0,,,,
72325 1,,出汐二丁目,,34.37752225,132.472823,72325 1,,0,,,,
72390 0,,寺分,,34.45444863,132.5458467,72390 0,,0,,,,
72390 1,,寺分,,34.45459862,132.54583,72390 1,,0,,,,
72400 0,,寺分北,,34.4562985,132.5496297,72400 0,,0,,,,
72400 1,,寺分北,,34.45594853,132.5488797,72400 1,,0,,,,
72470 0,,東浄ショッピングセンター前,,34.42730072,132.4990685,72470 0,,0,,,,
72470 1,,東浄ショッピングセンター前,,34.42731738,132.4989685,72470 1,,0,,,,
72500 0,,豊芝入口,,34.43818342,132.5295988,72500 0,,0,,,,
72500 1,,豊芝入口,,34.43830008,132.5294822,72500 1,,0,,,,
72530 0,,中島小学校前,,34.38600426,132.4485413,72530 0,,0,,,,
72530 1,,中島小学校前,,34.38663753,132.4488079,72530 1,,0,,,,
72560 0,,中山上町,,34.41678516,132.4978024,72560 0,,0,,,,
72560 1,,中山上町,,34.4175684,132.4972691,72560 1,,0,,,,
72570 0,,中山北町,,34.41976814,132.4961191,72570 0,,0,,,,
72570 1,,中山北町,,34.4195015,132.4961525,72570 1,,0,,,,
72590 0,,中山小学校前,,34.40896937,132.5005526,72590 0,,0,,,,
72590 1,,中山小学校前,,34.409352678106286403090,132.5012025022896441470356,72590 1,,0,,,,
72600 0,,中山中町,,34.41506867,132.4977859,72600 0,,0,,,,
72600 1,,中山中町,,34.41556862,132.4977525,72600 1,,0,,,,
72610 0,,中山西,,34.40711947,132.4949031,72610 0,,0,,,,
72610 1,,中山西,,34.40761943,132.4952364,72610 1,,0,,,,
72630 0,,中山踏切,,34.4081194,132.4969029,72630 0,,0,,,,
72630 1,,中山踏切,,34.40821939,132.4968862,72630 1,,0,,,,
72630 2,,中山踏切,,34.408336038768203722133,132.4965696004428736184654,72630 2,,0,,,,
72630 3,,中山踏切,,34.408619337560182716922,132.4963196077355529741984,72630 3,,0,,,,
72660 0,,中山保育園前,,34.41295223,132.497386,72660 0,,0,,,,
72660 1,,中山保育園前,,34.4125356,132.497236,72660 1,,0,,,,
72720 0,,西の畑,,34.43506702,132.5256493,72720 0,,0,,,,
72720 1,,西の畑,,34.43535033,132.5258326,72720 1,,0,,,,
72730 0,,西白島,,34.4059505,132.4590212,72730 0,,0,,,,
72730 1,,西白島,,34.40605228,132.4581729,72730 1,,0,,,,
72740 0,,常盤橋東,,34.40275282,132.4690388,72740 0,,0,,,,
72760 0,,日赤病院前,,34.3801148,132.4562291,72760 0,,0,,,,
72760 1,,日赤病院前,,34.3806586,132.4561866,72760 1,,0,,,,
72780 0,,温品四丁目,,34.4102653,132.510355,72780 0,,0,,,,
72780 1,,温品四丁目,,34.4097947,132.5101578,72780 1,,0,,,,
72790 0,,温品口,,34.41123589,132.5058854,72790 0,,0,,,,
72790 1,,温品口,,34.41150254,132.5062853,72790 1,,0,,,,
72800 0,,温品小学校前,,34.4157188,132.5091349,72800 0,,0,,,,
72800 1,,温品小学校前,,34.41661871,132.5091848,72800 1,,0,,,,
72810 0,,登石,,34.44054988,132.5319318,72810 0,,0,,,,
72810 1,,登石,,34.4406332,132.5317985,72810 1,,0,,,,
72820 0,,幟町,,34.3969701,132.4685391,72820 0,,0,,,,
72850 0,,幟町中学校前,,34.39811998,132.4685724,72850 0,,0,,,,
72870 0,,羽衣町,,34.3797716,132.4489082,72870 0,,0,,,,
72870 1,,羽衣町,,34.37850507,132.4493582,72870 1,,0,,,,
73000 0,,保健所東,,34.38568785,132.4614736,73000 0,,0,,,,
73000 1,,保健所東,,34.38542121,132.4616402,73000 1,,0,,,,
73010 0,,東翠町,,34.37127289,132.4707734,73010 0,,0,,,,
73010 1,,東翠町,,34.36995636,132.4708568,73010 1,,0,,,,
73015 1,,比治山下,,34.38548803,132.4707895,73015 1,,0,,,,
73185 0,,市立広島特別支援学校,,34.34960812,132.4466931,73185 0,,0,,,,
73185 1,,市立広島特別支援学校,,34.34960812,132.4466931,73185 1,,0,,,,
73190 0,,広商入口,,34.37588845,132.4361094,73190 0,,0,,,,
73190 1,,広商入口,,34.37628838,132.4342429,73190 1,,0,,,,
73250 0,,広電本社前,,34.3772653,132.458066,73250 0,,0,,,,
73250 1,,広電本社前,,34.3781338,132.4578459,73250 1,,0,,,,
73270 0,,福木小学校前,,34.44581602,132.5339148,73270 0,,0,,,,
73270 1,,福木小学校前,,34.44573269,132.5335981,73270 1,,0,,,,
73280 0,,日赤病院西,,34.3799883,132.4524079,73280 0,,0,,,,
73280 1,,日赤病院西,,34.38048825,132.4528079,73280 1,,0,,,,
73290 0,,福島町,,34.39773611,132.4357085,73290 0,,0,,,,
73290 1,,福島町,,34.39773611,132.4355252,73290 1,,0,,,,
73300 0,,福田,,34.45209881,132.5413472,73300 0,,0,,,,
73300 1,,福田,,34.45241544,132.5413805,73300 1,,0,,,,
73390 0,,グランドプリンスホテル広島,,34.34360905,132.4636586,73390 0,,0,,,,
73390 1,,グランドプリンスホテル広島,,34.34359239,132.4636586,73390 1,,0,,,,
73400 0,,ベイシティ宇品,,34.36297357,132.4588415,73400 0,,0,,,,
73400 1,,ベイシティ宇品,,34.36289025,132.4590915,73400 1,,0,,,,
73410 0,,平和記念公園,,34.39092046,132.4519408,73410 0,,0,,,,
73410 1,,平和記念公園,,34.39070381,132.4518741,73410 1,,0,,,,
73430 0,,戸坂新町二丁目,,34.43051702,132.4978018,73430 0,,0,,,,
73430 1,,戸坂新町二丁目,,34.43061701,132.4976518,73430 1,,0,,,,
73450 0,,戸坂東浄団地,,34.43218349,132.4966685,73450 0,,0,,,,
73450 1,,戸坂東浄団地,,34.43218349,132.4966518,73450 1,,0,,,,
73460 0,,別院前,,34.40383569,132.4492237,73460 0,,0,,,,
73460 1,,別院前,,34.404019,132.4489738,73460 1,,0,,,,
73470 0,,放送会館前,,34.3900706,132.4552239,73470 0,,0,,,,
73470 1,,放送会館前,,34.38987062,132.4550072,73470 1,,0,,,,
73610 0,,万休寺前,,34.41023595,132.5031523,73610 0,,0,,,,
73610 1,,万休寺前,,34.41036928,132.5036189,73610 1,,0,,,,
73640 0,,三篠北町,,34.41738436,132.4559559,73640 0,,0,,,,
73650 0,,三滝駅入口,,34.4153844,132.4461068,73650 0,,0,,,,
73650 1,,三滝駅入口,,34.41535107,132.4461568,73650 1,,0,,,,
73660 0,,三滝大橋,,34.41588442,132.4502898,73660 0,,0,,,,
73660 1,,三滝大橋,,34.41588443,132.4504231,73660 1,,0,,,,
73670 0,,三滝観音,,34.41793406,132.4418737,73670 0,,0,,,,
73670 1,,三滝観音,,34.41796738,132.4416737,73670 1,,0,,,,
73680 0,,三滝町,,34.41656772,132.4524895,73680 0,,0,,,,
73680 1,,三滝町,,34.41683435,132.4516896,73680 1,,0,,,,
73690 0,,緑大橋西詰,,34.39322002,132.4410416,73690 0,,0,,,,
73690 1,,緑大橋西詰,,34.3930367,132.4409249,73690 1,,0,,,,
73695 0,,翠２丁目,,34.37335597,132.4689735,73695 0,,0,,,,
73710 0,,南千田西町,,34.37278911,132.454808,73710 0,,0,,,,
73720 0,,南鷹の橋,,34.38248807,132.454491,73720 0,,0,,,,
73720 1,,南鷹の橋,,34.38270472,132.4547076,73720 1,,0,,,,
73755 0,,皆実町四丁目,,34.37385595,132.4712566,73755 0,,0,,,,
73755 1,,皆実町四丁目,,34.37435591,132.4716566,73755 1,,0,,,,
73765 0,,皆実町五丁目,,34.37382252,132.4653404,73765 0,,0,,,,
73780 0,,南吉島,,34.36210673,132.4438094,73780 0,,0,,,,
73780 1,,南吉島,,34.36160677,132.4430762,73780 1,,0,,,,
73790 0,,都町,,34.39725285,132.437125,73790 0,,0,,,,
73790 1,,都町,,34.39693623,132.437825,73790 1,,0,,,,
73800 0,,御幸一丁目,,34.36857304,132.4629242,73800 0,,0,,,,
73800 1,,御幸一丁目,,34.36798977,132.4629409,73800 1,,0,,,,
73810 0,,御幸二丁目,,34.36617329,132.4627077,73810 0,,0,,,,
73810 1,,御幸二丁目,,34.36638994,132.4628077,73810 1,,0,,,,
73820 0,,御幸二丁目南,,34.36405685,132.4625245,73820 0,,0,,,,
73820 1,,御幸二丁目南,,34.36445681,132.4626244,73820 1,,0,,,,
73830 0,,御幸三丁目,,34.36215705,132.4623412,73830 0,,0,,,,
73830 1,,御幸三丁目,,34.36242369,132.4624246,73830 1,,0,,,,
73840 0,,御幸四丁目,,34.3600406,132.4621247,73840 0,,0,,,,
73840 1,,御幸四丁目,,34.36054055,132.4622746,73840 1,,0,,,,
73850 0,,御幸五丁目,,34.35812414,132.4619748,73850 0,,0,,,,
73850 1,,御幸五丁目,,34.35844077,132.4620748,73850 1,,0,,,,
73890 0,,御幸松,,34.35489115,132.461675,73890 0,,0,,,,
73890 1,,御幸松,,34.35487448,132.4617916,73890 1,,0,,,,
73900 0,,向洋大原,,34.36657399,132.5051541,73900 0,,0,,,,
73900 1,,向洋大原,,34.36654066,132.5052541,73900 1,,0,,,,
73940 0,,元宇品北,,34.34660872,132.4627752,73940 0,,0,,,,
73940 1,,元宇品北,,34.34584214,132.4630253,73940 1,,0,,,,
73950 0,,元宇品,,34.34482558,132.4631753,73950 0,,0,,,,
73950 1,,元宇品,,34.3447256,132.4633086,73950 1,,0,,,,
73980 0,,元宇品口,,34.35312462,132.4589753,73980 0,,0,,,,
73980 1,,元宇品口,,34.35275801,132.4599252,73980 1,,0,,,,
73990 0,,元宇品小学校下,,34.34965839,132.4625585,73990 0,,0,,,,
73990 1,,元宇品小学校下,,34.34982504,132.4626418,73990 1,,0,,,,
74010 0,,基町小学校前,,34.4018516,132.4561407,74010 0,,0,,,,
74010 1,,基町小学校前,,34.4019927,132.4561339,74010 1,,0,,,,
74020 0,,基町ショッピングセンター前,,34.4041999,132.4569563,74020 0,,0,,,,
74020 1,,基町ショッピングセンター前,,34.4040586,132.4570127,74020 1,,0,,,,
74040 0,,矢賀四丁目,,34.39908709,132.4998531,74040 0,,0,,,,
74200 0,,郵便局前,,34.34739196,132.4625752,74200 0,,0,,,,
74200 1,,郵便局前,,34.34725865,132.4626919,74200 1,,0,,,,
74230 0,,洋光台団地入口,,34.3653741,132.5043709,74230 0,,0,,,,
74230 1,,洋光台団地入口,,34.36544077,132.5045542,74230 1,,0,,,,
74240 0,,洋光台団地北,,34.36477431,132.5122536,74240 0,,0,,,,
74240 1,,洋光台団地北,,34.36477431,132.5122536,74240 1,,0,,,,
74250 0,,洋光台団地,,34.36215785,132.5085707,74250 0,,0,,,,
74250 1,,洋光台団地,,34.36215785,132.5085707,74250 1,,0,,,,
74260 0,,洋光台団地中,,34.36329111,132.5108705,74260 0,,0,,,,
74260 1,,洋光台団地中,,34.36329111,132.5108705,74260 1,,0,,,,
74320 0,,横見谷,,34.41900181,132.5107013,74320 0,,0,,,,
74320 1,,横見谷,,34.41913513,132.5106346,74320 1,,0,,,,
74330 0,,吉島一丁目,,34.376022,132.449225,74330 0,,0,,,,
74330 1,,吉島一丁目,,34.37528875,132.4491751,74330 1,,0,,,,
74340 0,,吉島二丁目,,34.37412219,132.4485085,74340 0,,0,,,,
74340 1,,吉島二丁目,,34.3734556,132.4484919,74340 1,,0,,,,
74350 0,,吉島営業所,,34.36047353,132.441743,74350 0,,0,,,,
74350 1,,吉島営業所,,34.36057351,132.4410764,74350 1,,0,,,,
74360 0,,吉島町,,34.38138808,132.4486248,74360 0,,0,,,,
74360 1,,吉島町,,34.38152141,132.4488415,74360 1,,0,,,,
74370 0,,吉島西,,34.37330558,132.446692,74370 0,,0,,,,
74370 1,,吉島西,,34.37295563,132.4473753,74370 1,,0,,,,
74380 0,,吉島東,,34.37295566,132.4488752,74380 0,,0,,,,
74390 0,,吉島病院,,34.36870616,132.4515918,74390 0,,0,,,,
74390 1,,吉島病院,,34.36870616,132.4516085,74390 1,,0,,,,
74395 0,,吉島アパート前,,34.36600643,132.450492,74395 0,,0,,,,
74395 1,,吉島アパート前,,34.36613975,132.4503587,74395 1,,0,,,,
74400 0,,吉島病院入口,,34.36910603,132.4465922,74400 0,,0,,,,
74400 1,,吉島病院入口,,34.36925602,132.4468755,74400 1,,0,,,,
74410 0,,広島南特別支援学校前,,34.3716891,132.447592,74410 0,,0,,,,
74410 1,,広島南特別支援学校前,,34.37077253,132.4474754,74410 1,,0,,,,
74991 0,,ＬＥＣＴ,,34.37320488,132.4059454,74991 0,,0,,,,
74991 1,,ＬＥＣＴ,,34.37322155,132.4059787,74991 1,,0,,,,
75013 0,,翠町第二公園前,,34.3730394,132.4725899,75013 0,,0,,,,
75013 1,,翠町第二公園前,,34.37290608,132.4725232,75013 1,,0,,,,
75015 0,,宇品海岸三丁目,,34.35462455,132.4643581,75015 0,,0,,,,
75015 1,,宇品海岸三丁目,,34.35424127,132.4645248,75015 1,,0,,,,
75016 0,,港湾合同庁舎前,,34.35524119,132.4666079,75016 0,,0,,,,
75016 1,,港湾合同庁舎前,,34.35480793,132.4677078,75016 1,,0,,,,
75017 0,,競輪場前,,34.35615781,132.469041,75017 0,,0,,,,
75017 1,,競輪場前,,34.35637445,132.4693076,75017 1,,0,,,,
75018 0,,宇品東五丁目,,34.35957411,132.4692741,75018 0,,0,,,,
75018 1,,宇品東五丁目,,34.35989075,132.4695907,75018 1,,0,,,,
75019 0,,宇品東一丁目,,34.36260712,132.469524,75019 0,,0,,,,
75019 1,,宇品東一丁目,,34.36337372,132.4698906,75019 1,,0,,,,
75020 1,,旭二丁目,,34.37252285,132.4764229,75020 1,,0,,,,
75030 0,,横川3丁目,,34.40920183,132.4517733,75030 0,,0,,,,9
75030 1,,横川3丁目,,34.40943514,132.4520066,75030 1,,0,,,,8
75040 0,,横川1丁目,,34.40740199,132.4501402,75040 0,,0,,,,7
75040 1,,横川1丁目,,34.40803526,132.4499235,75040 1,,0,,,,6
75041 0,,エディオンピースウイング広島,,34.402285919246493007914,132.452690189970421823770,75041 0,,0,,,,
75041 1,,エディオンピースウイング広島,,34.402285919828621148618,132.452723520238346515222,75041 1,,0,,,,
75042 0,,広島港湾振興事務所,,34.350858029119287921516,132.449392831868122532204,75042 0,,0,,,,
75042 1,,広島港湾振興事務所,,34.350858029119287921516,132.449392831868122532204,75042 1,,0,,,,
